City_ID,City,Lat,Lng,Max Temp,Humidity,Cloudiness,Wind Speed,Country,Date
0,talnakh,69.4865,88.3972,12.34,64,97,0.65,RU,1691971863
1,west island,-12.1568,96.8225,23.99,78,75,7.72,CC,1691971863
2,holyhead,53.3062,-4.6321,16.1,88,100,5.66,GB,1691971863
3,maintirano,-18.0667,44.0167,22.25,81,27,4.08,MG,1691971863
4,bethel,41.3712,-73.414,27.17,71,0,2.06,US,1691971864
5,paungde,18.4833,95.5,24.76,93,100,2.46,MM,1691971864
6,fortuna,40.5982,-124.1573,19.43,79,20,6.17,US,1691971864
7,bilibino,68.0546,166.4372,18.97,40,98,1.7,RU,1691971865
8,grytviken,-54.2811,-36.5092,-6.54,91,50,4.81,GS,1691971865
9,parauna,-16.9478,-50.4486,24.93,33,60,2.68,BR,1691971865
10,adamstown,-25.066,-130.1015,18.77,60,14,4.5,PN,1691971866
11,waitangi,-43.9535,-176.5597,13.79,86,65,3.13,NZ,1691971866
12,trairi,-3.2778,-39.2689,25.73,84,57,5.32,BR,1691971866
13,udachny,66.4167,112.4,13.03,81,98,6.66,RU,1691971827
14,bangassou,4.7413,22.8184,20.64,99,97,0.97,CF,1691971866
15,nemuro,43.3236,145.575,14.5,84,97,7.48,JP,1691971705
16,masterton,-40.9597,175.6575,12.16,89,97,3.95,NZ,1691971867
17,olonkinbyen,70.9221,-8.7187,4.46,84,98,5.2,SJ,1691971867
18,leava,-14.3,-178.1667,27.14,83,82,6.69,WF,1691971867
19,luau,-10.7073,22.2247,15.33,28,22,1.54,AO,1691971867
20,petropavlovsk-kamchatsky,53.0452,158.6483,18.21,72,20,2.0,RU,1691971867
21,pangody,65.85,74.4859,9.67,57,1,2.45,RU,1691971868
22,pacasmayo,-7.4006,-79.5714,21.32,85,94,5.25,PE,1691971868
23,edinburgh of the seven seas,-37.0676,-12.3116,11.16,62,87,5.24,SH,1691971868
24,stanley,54.868,-1.6985,14.04,83,0,2.06,GB,1691971868
25,ushuaia,-54.8,-68.3,2.81,60,0,1.03,AR,1691971273
26,port-aux-francais,-49.35,70.2167,2.39,71,89,7.33,TF,1691971868
27,albany,42.6001,-73.9662,23.36,72,51,2.41,US,1691971849
28,new norfolk,-42.7826,147.0587,9.4,66,33,0.93,AU,1691971869
29,jamestown,42.097,-79.2353,21.92,73,0,2.06,US,1691971848
30,mount gambier,-37.8333,140.7667,9.85,59,23,0.94,AU,1691971869
31,grassano,40.6346,16.2779,15.56,56,0,1.96,IT,1691971869
32,hermanus,-34.4187,19.2345,9.33,68,100,3.56,ZA,1691971869
33,port mathurin,-19.6833,63.4167,22.93,68,11,10.21,MU,1691971869
34,nuuk,64.1835,-51.7216,9.34,93,100,3.6,GL,1691971869
35,ilulissat,69.2167,-51.1,7.01,93,75,0.0,GL,1691971870
36,ketchikan,55.3422,-131.6461,18.26,72,0,2.57,US,1691971870
37,avarua,-21.2078,-159.775,25.03,65,40,4.12,CK,1691971870
38,aasiaat,68.7098,-52.8699,3.42,97,100,1.79,GL,1691971870
39,alice springs,-23.7,133.8833,24.75,27,20,5.66,AU,1691971870
40,hasaki,35.7333,140.8333,29.22,83,3,3.76,JP,1691971870
41,howard springs,-12.497,131.047,26.57,69,4,5.6,AU,1691971870
42,novo selo,41.4139,22.8811,20.31,55,28,2.61,MK,1691971871
43,xifeng,42.7372,124.7222,22.74,85,0,1.24,CN,1691971871
44,darnah,32.767,22.6367,25.12,65,0,4.59,LY,1691971871
45,napili-honokowai,20.9708,-156.6705,30.51,81,1,5.5,US,1691971871
46,tiksi,71.6872,128.8694,12.02,41,51,1.21,RU,1691971871
47,nieuw amsterdam,5.8833,-55.0833,28.34,85,1,5.41,SR,1691971871
48,karratha,-20.7377,116.8463,19.76,45,71,1.81,AU,1691971872
49,ust-nera,64.5667,143.2,25.76,29,86,1.71,RU,1691971872
50,lihue,21.9789,-159.3672,29.77,61,20,6.69,US,1691971872
51,lalsot,26.5667,76.3333,26.31,77,98,2.91,IN,1691971401
52,mahibadhoo,3.7833,72.9667,27.94,74,47,4.52,MV,1691971872
53,tekman,39.6436,41.5078,13.95,66,32,2.61,TR,1691971872
54,badger,64.8,-147.5333,22.3,42,40,3.09,US,1691971872
55,puerto ayora,-0.7393,-90.3518,23.3,74,50,4.56,EC,1691971873
56,nueve de julio,-35.4444,-60.8831,12.76,47,71,2.24,AR,1691971873
57,eydhafushi,5.1033,73.0708,28.04,71,22,5.26,MV,1691971873
58,la passe,45.5549,-0.8967,21.13,76,42,3.09,FR,1691971873
59,holualoa,19.6228,-155.9522,26.91,75,40,5.66,US,1691971873
60,utrik,11.2278,169.8474,28.16,73,35,6.3,MH,1691971873
61,yellowknife,62.456,-114.3525,23.29,47,100,7.2,CA,1691971874
62,ola,59.5833,151.2833,23.97,73,9,2.02,RU,1691971874
63,margaret river,-33.95,115.0667,14.5,78,58,5.81,AU,1691971874
64,ribeira grande,38.5167,-28.7,22.65,88,18,1.34,PT,1691971874
65,taulaga,-11.0553,-171.0883,28.11,72,13,7.78,AS,1691971874
66,saldanha,-33.0117,17.9442,12.94,72,28,6.39,ZA,1691971874
67,longyearbyen,78.2186,15.6401,7.91,93,100,5.66,SJ,1691971874
68,anadyr,64.75,177.4833,19.28,45,0,7.0,RU,1691971875
69,flying fish cove,-10.4217,105.6791,23.82,88,100,3.6,CX,1691971875
70,tralee,52.2704,-9.7026,12.03,93,99,0.82,IE,1691971875
71,romny,50.751,33.4747,15.3,68,7,1.32,UA,1691971875
72,ghat,24.9647,10.1728,29.9,20,0,3.47,LY,1691971877
73,meadow lake,34.8014,-106.5436,33.5,31,90,2.25,US,1691971877
74,puerto natales,-51.7236,-72.4875,2.02,96,97,2.34,CL,1691971841
75,at-bashi,41.1702,75.8106,8.51,49,13,1.38,KG,1691971877
76,sur,22.5667,59.5289,31.33,62,6,2.72,OM,1691971877
77,mount pearl,47.5166,-52.7813,17.96,88,33,1.79,CA,1691971877
78,san antonio de pale,-1.4014,5.6325,23.71,87,100,6.71,GQ,1691971878
79,kruisfontein,-34.0033,24.7314,9.94,88,11,2.7,ZA,1691971878
80,canacona,14.9959,74.0506,25.69,85,100,3.62,IN,1691971878
81,praia,14.9215,-23.5087,27.14,82,67,2.74,CV,1691971878
82,bredasdorp,-34.5322,20.0403,10.55,77,95,2.31,ZA,1691971878
83,vadso,70.0744,29.7487,14.49,94,100,3.6,NO,1691971879
84,mar del plata,-38.0023,-57.5575,11.64,55,75,2.68,AR,1691971724
85,whitehorse,60.7161,-135.0538,17.79,40,58,7.15,CA,1691971879
86,newman,37.3138,-121.0208,32.99,19,52,3.74,US,1691971879
87,enewetak,11.3474,162.3373,28.86,73,100,5.69,MH,1691971879
88,vorgashor,67.5833,63.95,15.16,97,98,2.46,RU,1691971879
89,sinabang,2.4803,96.3801,23.92,94,100,3.73,ID,1691971880
90,tazovsky,67.4667,78.7,8.18,74,1,2.18,RU,1691971880
91,invercargill,-46.4,168.35,6.68,83,86,3.58,NZ,1691971845
92,kodiak,57.79,-152.4072,16.73,77,100,4.63,US,1691971880
93,blackmans bay,-43.0167,147.3167,8.74,78,98,0.5,AU,1691971880
94,papatowai,-46.5619,169.4708,7.66,77,35,2.0,NZ,1691971880
95,guiuan,11.0333,125.7247,28.09,74,97,3.02,PH,1691971881
96,pandan,14.0453,124.1694,28.0,78,97,2.11,PH,1691971881
97,tazacorte,28.629,-17.9293,23.54,88,20,6.17,ES,1691971881
98,uturoa,-16.7333,-151.4333,25.41,71,99,5.46,PF,1691971881
99,kingston,17.997,-76.7936,29.53,82,20,4.63,JM,1691971365
100,newquay,50.4132,-5.0819,17.42,94,75,7.72,GB,1691971882
101,nar'yan-mar,67.6713,53.087,13.18,87,85,2.07,RU,1691971882
102,khandyga,62.6667,135.6,23.18,50,100,1.69,RU,1691971882
103,oranjemund,-28.55,16.4333,11.07,93,1,3.27,NA,1691971882
104,arraial do cabo,-22.9661,-42.0278,19.95,93,100,1.7,BR,1691971883
105,taltal,-25.4,-70.4833,15.73,82,24,1.96,CL,1691971883
106,fort st. john,56.2499,-120.8529,26.92,37,16,5.73,CA,1691971883
107,wailua homesteads,22.0669,-159.378,29.44,69,20,6.69,US,1691971883
108,afaahiti,-17.75,-149.2833,26.93,74,90,3.86,PF,1691971883
109,metlili chaamba,32.2667,3.6333,30.12,27,1,3.45,DZ,1691971883
110,hithadhoo,-0.6,73.0833,27.56,74,52,4.44,MV,1691971884
111,zhezqazghan,47.7833,67.7667,14.11,39,65,3.2,KZ,1691971884
112,atar,20.5169,-13.0499,35.09,28,33,3.49,MR,1691971884
113,paramonga,-10.6667,-77.8333,19.85,82,54,3.65,PE,1691971884
114,orange walk,17.8333,-88.8333,29.49,65,100,2.86,BZ,1691971884
115,ambon,-3.6954,128.1814,29.02,100,100,6.13,ID,1691971430
116,vilyuchinsk,52.9306,158.4028,19.03,62,7,1.07,RU,1691971885
117,kyshtovka,56.555,76.6271,9.21,94,100,3.71,RU,1691971885
118,trostyanets',50.4784,34.963,16.23,69,3,1.51,UA,1691971885
119,punta arenas,-53.15,-70.9167,0.62,92,100,4.51,CL,1691971678
120,acajutla,13.5928,-89.8275,28.46,81,94,0.97,SV,1691971885
121,wakkanai,45.4094,141.6739,17.99,88,75,6.17,JP,1691971885
122,muli,2.9167,73.5667,28.09,70,62,4.25,MV,1691971886
123,campbell river,50.0163,-125.2446,29.77,35,16,4.58,CA,1691971668
124,janeng,-25.4167,25.55,14.8,36,12,4.85,BW,1691971886
125,murehwa,-17.6432,31.784,11.18,64,22,1.77,ZW,1691971886
126,monaragala,6.8714,81.3487,24.08,79,46,1.43,LK,1691971886
127,sao gabriel da cachoeira,-0.1303,-67.0892,23.32,96,78,1.39,BR,1691971886
128,nagqu,31.5,92.0,5.47,89,100,1.02,CN,1691971887
129,iqaluit,63.7506,-68.5145,4.57,88,71,2.67,CA,1691971887
130,selkirk,50.1436,-96.8845,22.31,78,92,1.99,CA,1691971887
131,la'ie,21.6477,-157.9253,31.98,60,0,6.14,US,1691971887
132,salalah,17.0151,54.0924,26.05,94,100,2.57,OM,1691971589
133,carutapera,-1.195,-46.02,24.0,91,57,2.14,BR,1691971623
134,port alfred,-33.5906,26.891,14.36,80,92,4.54,ZA,1691971888
135,haiku-pauwela,20.9219,-156.3051,29.01,61,40,11.83,US,1691971888
136,santiago de la pena,20.95,-97.4,34.9,63,6,5.75,MX,1691971888
137,likhoslavl',57.1275,35.464,14.67,99,50,1.85,RU,1691971888
138,murun-kuren,49.6342,100.1625,14.94,90,100,0.66,MN,1691971888
139,cooma,-36.2333,149.1333,4.52,98,100,1.02,AU,1691971888
140,diawara,15.022,-12.5437,27.92,77,83,4.96,SN,1691971888
141,lahad datu,5.0268,118.327,25.29,94,98,0.57,MY,1691971889
142,ciudad lazaro cardenas,17.9583,-102.2,29.99,77,6,2.48,MX,1691971889
143,atafu village,-8.5421,-172.5159,28.49,71,47,7.75,TK,1691971889
144,saipan,15.1355,145.701,27.39,100,75,6.69,MP,1691971889
145,fomboni,-12.28,43.7425,24.9,76,3,2.53,KM,1691971889
146,hotan,37.0997,79.9269,25.95,18,89,1.17,CN,1691971889
147,sisimiut,66.9395,-53.6735,7.34,81,97,0.9,GL,1691971890
148,kerikeri,-35.2268,173.9474,13.34,89,100,5.65,NZ,1691971890
149,codrington,-38.2667,141.9667,9.17,64,80,1.18,AU,1691971890
150,kargasok,59.0556,80.8572,9.79,98,100,3.52,RU,1691971890
151,ladario,-19.0047,-57.6017,21.25,57,100,2.06,BR,1691971890
152,beira,-19.8436,34.8389,17.14,90,0,1.92,MZ,1691971890
153,ceeldheer,3.8488,47.1806,23.76,92,85,6.94,SO,1691971890
154,aykhal,66.0,111.5,13.54,75,100,6.46,RU,1691971891
155,san patricio,28.017,-97.5169,34.54,44,3,7.97,US,1691971891
156,keflavik,64.0049,-22.5624,11.24,87,0,1.03,IS,1691971891
157,xilin hot,43.9667,116.0333,24.32,38,40,3.89,CN,1691971891
158,bardai,11.65,7.2333,20.18,90,87,2.81,NG,1691971891
159,yigo village,13.5361,144.8886,26.62,88,0,7.72,GU,1691971891
160,constantia,44.1833,28.65,18.38,73,0,3.89,RO,1691971891
161,itamarandiba,-17.8572,-42.8589,17.36,65,76,2.0,BR,1691971892
162,nizhneudinsk,54.9076,99.0276,16.03,95,100,1.79,RU,1691971892
163,levuka,50.1834,-105.4011,24.59,33,45,5.38,CA,1691971892
164,leticia,-4.2153,-69.9406,24.03,100,40,2.57,CO,1691971892
165,cristalina,-16.7686,-47.6136,19.92,44,81,2.3,BR,1691971645
166,al ghayzah,16.2079,52.176,25.98,92,40,3.67,YE,1691971892
167,happy valley-goose bay,53.3168,-60.3315,11.31,91,100,1.98,CA,1691971892
168,cody,44.5263,-109.0565,22.8,34,0,7.72,US,1691971893
169,priargunsk,50.3691,119.1012,20.81,64,36,0.7,RU,1691971893
170,ataq,14.5377,46.8319,25.14,44,16,2.71,YE,1691971894
171,kapa'a,22.0752,-159.319,30.18,70,20,6.69,US,1691971895
172,santiago de cao,-7.9589,-79.2392,22.07,88,75,3.09,PE,1691971895
173,ubinskoye,55.3068,79.6802,8.71,98,100,3.0,RU,1691971895
174,port elizabeth,-33.918,25.5701,12.16,76,0,5.14,ZA,1691971895
175,cutral-co,-38.9469,-69.2089,17.73,10,86,2.24,AR,1691971895
176,polyarnyy,69.1989,33.4478,15.2,81,97,1.88,RU,1691971896
177,yass,-34.8333,148.9167,9.34,96,100,4.05,AU,1691971896
178,ad dabbah,18.05,30.95,34.6,18,60,4.58,SD,1691971896
179,santo domingo,18.5001,-69.9886,27.18,88,40,0.0,DO,1691971652
180,williams lake,52.1415,-122.1445,30.09,29,86,0.64,CA,1691971896
181,aras-asan,8.8908,126.3033,27.18,76,100,1.29,PH,1691971897
182,harper,4.375,-7.7169,23.8,80,99,2.61,LR,1691971897
183,flin flon,54.7682,-101.865,21.57,53,88,2.28,CA,1691971897
184,christiana,-27.914,25.1611,10.71,31,0,3.31,ZA,1691971677
185,ogdensburg,44.6942,-75.4863,19.69,96,100,0.0,US,1691971897
186,iskateley,67.6803,53.1512,13.26,88,85,1.78,RU,1691971897
187,skalica,48.8449,17.2264,18.41,66,32,2.28,SK,1691971897
188,mana,5.6592,-53.7767,26.12,87,12,2.49,GF,1691971898
189,tadine,-21.55,167.8833,21.11,49,96,3.75,NC,1691971898
190,kirensk,57.7853,108.1119,20.1,79,57,2.19,RU,1691971898
191,st. john's,47.5649,-52.7093,18.42,88,29,4.95,CA,1691971899
192,meizhou,24.2977,116.1072,27.26,90,38,1.11,CN,1691971900
193,majene,-3.5403,118.9707,25.86,81,89,7.67,ID,1691971900
194,college,64.8569,-147.8028,22.34,43,100,3.09,US,1691971900
195,al jahra',29.3375,47.6581,36.46,14,0,5.35,KW,1691971900
196,hamilton,39.1834,-84.5333,28.57,59,0,3.09,US,1691971473
197,nadym,65.5333,72.5167,9.09,56,70,1.0,RU,1691971900
198,hawaiian paradise park,19.5933,-154.9731,28.91,72,40,4.12,US,1691971900
199,kavieng,-2.5744,150.7967,27.77,78,81,4.25,PG,1691971901
200,tianpeng,30.9866,103.9393,25.71,74,30,0.7,CN,1691971901
201,qaqortoq,60.7167,-46.0333,7.86,78,89,1.66,GL,1691971901
202,arteaga,18.4667,-102.4167,24.27,86,36,1.27,MX,1691971626
203,ust'-ilimsk,58.0006,102.6619,19.25,61,5,0.43,RU,1691971901
204,chui,-33.6971,-53.4616,8.69,61,77,3.54,UY,1691971901
205,betioky,-23.7167,44.3833,18.65,68,56,1.67,MG,1691971901
206,santa cruz,-17.8,-63.1667,17.03,48,75,4.12,BO,1691971137
207,matoury,4.8483,-52.3317,25.98,89,0,0.0,GF,1691971902
208,bryne,58.7354,5.6477,16.08,95,75,4.12,NO,1691971902
209,chake chake,-5.2459,39.7666,22.74,90,7,4.02,TZ,1691971902
210,leca da palmeira,41.191,-8.7003,16.08,93,0,2.06,PT,1691971902
211,qarah bagh,34.9402,61.7759,17.35,27,0,8.65,AF,1691971902
212,gadzhiyevo,69.2551,33.3362,14.0,83,100,2.52,RU,1691971902
213,tumut,-35.3,148.2167,9.27,94,100,0.76,AU,1691971903
214,klyuchi,52.2667,79.1667,10.37,85,98,3.34,RU,1691971903
215,ancud,-41.8697,-73.8203,10.61,99,100,4.37,CL,1691971810
216,cartagena del chaira,1.3349,-74.8429,22.62,89,78,1.11,CO,1691971903
217,puerto deseado,-47.7503,-65.8938,4.82,76,54,2.59,AR,1691971903
218,mek'ele,13.4967,39.4753,17.91,75,12,1.2,ET,1691971903
219,dudinka,69.4058,86.1778,12.57,69,57,1.14,RU,1691971903
220,lebu,-37.6167,-73.65,11.74,88,87,2.27,CL,1691971903
221,loukhi,66.0764,33.0381,14.31,95,84,2.23,RU,1691971904
222,neiafu,-18.65,-173.9833,25.38,83,75,3.6,TO,1691971904
223,muscat,23.6139,58.5922,38.01,50,6,1.72,OM,1691971904
224,sferracavallo,42.726,12.0956,22.12,81,0,0.71,IT,1691971904
225,kaya,13.0917,-1.0844,27.11,75,100,4.08,BF,1691971904
226,cabo san lucas,22.8909,-109.9124,35.34,58,20,5.14,MX,1691971828
227,georgetown,5.4112,100.3354,27.19,95,40,1.54,MY,1691971478
228,de aar,-30.6497,24.0123,9.78,35,0,1.38,ZA,1691971905
229,ta`u,-14.2336,-169.5144,27.62,77,42,6.47,AS,1691971905
230,vila franca do campo,37.7167,-25.4333,21.23,91,82,2.22,PT,1691971905
231,ubatuba,-23.4339,-45.0711,19.13,95,100,3.32,BR,1691971905
232,markovo,57.3206,107.0881,19.93,76,17,1.58,RU,1691971905
233,victoria de durango,24.0333,-104.6667,29.79,28,40,3.6,MX,1691971669
234,fale old settlement,-9.3852,-171.2468,28.39,73,21,7.99,TK,1691971906
235,nyala,12.05,24.8833,24.66,78,100,1.03,SD,1691971906
236,broome,42.2506,-75.833,21.67,75,38,2.24,US,1691971906
237,huarmey,-10.0681,-78.1522,20.47,82,35,4.01,PE,1691971906
238,ponta delgada,37.7333,-25.6667,21.4,88,75,4.63,PT,1691971906
239,boa vista,2.8197,-60.6733,29.81,49,71,3.29,BR,1691971906
240,fort bragg,35.139,-79.006,32.85,62,40,3.6,US,1691971906
241,tura,25.5198,90.2201,22.82,97,99,1.36,IN,1691971906
242,portland,45.5234,-122.6762,39.72,26,20,4.12,US,1691971548
243,umm kaddadah,13.6017,26.6876,24.17,69,100,7.32,SD,1691971907
244,maceio,-9.6658,-35.7353,23.72,71,15,3.51,BR,1691971751
245,chonchi,-42.6128,-73.8092,11.18,99,100,1.78,CL,1691971907
246,nova vicosa,-17.8919,-39.3719,22.4,82,31,3.51,BR,1691971685
247,mejit,10.2753,170.8646,28.32,74,35,6.92,MH,1691971907
248,yashan,22.1975,109.9419,26.64,92,100,1.06,CN,1691971907
249,el calafate,-50.3408,-72.2768,0.06,80,56,1.06,AR,1691971907
250,mizunami,35.3667,137.25,30.77,63,84,1.77,JP,1691971719
251,phan rang-thap cham,11.5667,108.9833,29.26,64,11,1.35,VN,1691971907
252,nova sintra,14.8667,-24.7167,23.7,86,49,5.59,CV,1691971908
253,port isabel,26.0734,-97.2086,33.04,66,0,8.23,US,1691971621
254,garachico,28.7781,-17.7646,22.06,88,2,7.2,ES,1691971908
255,tobelo,1.7284,128.0095,27.58,76,100,2.57,ID,1691971908
256,qamdo,31.1667,97.2333,8.59,78,100,0.94,CN,1691971908
257,ishigaki,24.3448,124.1572,28.99,78,42,2.29,JP,1691971908
258,beau vallon,-20.4189,57.6953,23.13,83,75,4.63,MU,1691971908
259,prince rupert,54.3161,-130.3201,14.83,100,100,3.6,CA,1691971908
260,plettenberg bay,-34.0527,23.3716,11.11,82,2,3.12,ZA,1691971909
261,den burg,53.0542,4.7972,16.11,93,100,3.09,NL,1691971909
262,southbury,41.4815,-73.2132,26.65,73,0,2.06,US,1691971909
263,coahuayana de hidalgo,18.7,-103.6583,30.13,77,27,1.97,MX,1691971909
264,thompson,55.7435,-97.8558,25.09,33,20,4.12,CA,1691971909
265,chitipa,-9.7024,33.2697,12.66,96,0,1.88,MW,1691971909
266,cockburn town,21.4612,-71.1419,29.08,78,2,6.7,TC,1691971909
267,axim,4.8699,-2.2405,23.93,89,78,4.95,GH,1691971909
268,kishtwar,33.3167,75.7667,19.56,94,80,0.52,IN,1691971910
269,brisas de zicatela,15.8369,-97.0419,31.29,66,75,2.57,MX,1691971910
270,lompoc,34.6391,-120.4579,31.12,77,75,2.68,US,1691971910
271,isafjordur,66.0755,-23.124,10.94,58,6,3.5,IS,1691971910
272,luang namtha,20.9497,101.4011,23.32,100,100,0.18,LA,1691971910
273,corner brook,48.9667,-57.9484,17.09,95,62,0.53,CA,1691971910
274,machico,32.7,-16.7667,25.4,79,20,9.26,PT,1691971910
275,shizunai-furukawacho,42.3339,142.3669,23.31,76,58,2.86,JP,1691971910
276,gharyan,32.1722,13.0203,20.09,61,0,3.1,LY,1691971911
277,yuzhno-kurilsk,44.0306,145.8556,14.9,74,34,6.17,RU,1691971911
278,sekong,-6.3996,106.0252,22.71,81,11,0.64,ID,1691971911
279,manokwari,-0.8667,134.0833,26.88,76,100,0.49,ID,1691971911
280,paracuru,-3.41,-39.0306,26.73,85,67,6.13,BR,1691971911
281,carolina beach,34.0352,-77.8936,31.04,83,82,2.57,US,1691971911
282,canutama,-6.5339,-64.3831,23.78,84,100,2.3,BR,1691971911
283,port lincoln,-34.7333,135.8667,13.12,66,62,1.99,AU,1691971912
284,rochester,43.1548,-77.6156,23.73,67,40,4.63,US,1691971652
285,singleton,-32.5667,151.1833,17.21,90,100,1.79,AU,1691971912
286,altay,47.8667,88.1167,13.8,77,84,1.91,CN,1691971912
287,loreto,22.2667,-101.9667,19.1,63,55,3.59,MX,1691971912
288,kavaratti,10.5669,72.642,27.31,72,100,5.04,IN,1691971912
289,yasinya,48.2794,24.3604,14.62,85,0,0.41,UA,1691971912
290,nogliki,51.8333,143.1667,18.42,71,56,4.79,RU,1691971912
291,posto fiscal rolim de moura,-13.0833,-62.2667,20.8,70,100,2.07,BR,1691971913
292,pipri,19.8,75.5333,22.28,88,100,2.95,IN,1691971913
293,praia da vitoria,38.7333,-27.0667,23.2,84,93,3.36,PT,1691971913
294,fuglafjordur,62.244,-6.814,10.26,92,100,4.18,FO,1691971913
295,bamboo flat,11.7,92.7167,27.96,81,97,8.33,IN,1691971913
296,hadibu,12.65,54.0333,26.43,77,3,8.19,YE,1691971913
297,rabo de peixe,37.8,-25.5833,20.73,88,75,4.63,PT,1691971914
298,broken hill,-31.95,141.4333,14.11,74,83,3.3,AU,1691971914
299,berdigestyakh,62.0989,126.6992,18.63,55,100,3.61,RU,1691971914
300,nadi,-17.8,177.4167,27.0,69,40,5.14,FJ,1691971914
301,aars,56.804,9.5144,15.77,96,88,3.42,DK,1691971914
302,larache,35.1932,-6.1557,23.51,76,6,5.31,MA,1691971914
303,kerben,40.2951,72.1863,21.28,28,92,1.79,KG,1691971914
304,revda,56.801,59.9303,11.65,85,2,1.66,RU,1691971915
305,carnarvon,-24.8667,113.6333,17.0,71,0,7.61,AU,1691971915
306,northam,51.0333,-4.2167,18.7,98,100,9.62,GB,1691971915
307,al jawf,29.5,38.75,32.81,17,85,3.05,SA,1691971915
308,sandnessjoen,66.0217,12.6316,11.29,80,87,5.29,NO,1691971915
309,cascais,38.6979,-9.4215,19.96,78,69,12.52,PT,1691971518
310,mangaratiba,-22.9597,-44.0406,20.76,96,100,1.4,BR,1691971915
311,zhalantun,48.0,122.7167,20.74,78,1,1.92,CN,1691971915
312,remire-montjoly,4.9167,-52.2667,26.02,89,0,0.0,GF,1691971916
313,dunedin,-45.8742,170.5036,10.6,61,78,2.15,NZ,1691971362
314,ribeira brava,32.65,-17.0667,25.4,84,7,2.33,PT,1691971916
315,ulladulla,-35.35,150.4667,9.86,99,100,0.83,AU,1691971916
316,yantzaza,-3.8278,-78.7594,24.23,99,100,0.62,EC,1691971916
317,mossel bay,-34.1831,22.146,11.25,89,60,1.57,ZA,1691971916
318,banda aceh,5.5577,95.3222,27.78,77,94,11.68,ID,1691971916
319,bengkulu,-3.8004,102.2655,24.55,88,92,5.14,ID,1691971916
320,vel'sk,61.0701,42.0983,17.71,88,93,2.41,RU,1691971917
321,kailua-kona,19.6406,-155.9956,29.17,73,40,5.66,US,1691971917
322,ca mau,9.1769,105.15,28.18,73,5,2.58,VN,1691971917
323,gouloure,12.2306,-1.9289,24.85,87,97,2.69,BF,1691971917
324,katsuura,35.1333,140.3,29.01,87,6,5.68,JP,1691971774
325,binzhou,37.3667,118.0167,25.86,72,0,1.07,CN,1691971917
326,antalaha,-14.9003,50.2788,20.59,92,31,1.89,MG,1691971917
327,jinchang,38.4953,102.1739,27.44,29,90,1.98,CN,1691971917
328,san luis de la loma,17.2706,-100.8939,30.7,83,6,1.41,MX,1691971918
329,acarau,-2.8856,-40.12,26.62,80,41,6.54,BR,1691971918
330,chamical,-30.36,-66.314,15.81,29,14,3.16,AR,1691971918
331,kanniyakumari,8.0833,77.5667,24.92,80,49,3.69,IN,1691971918
332,tsiombe,-25.3,45.4833,20.1,88,83,0.42,MG,1691971918
333,dhidhdhoo,6.8833,73.1,27.99,66,40,5.38,MV,1691971918
334,yambio,4.5721,28.3955,19.72,96,31,0.65,SS,1691971919
335,qaisumah,28.3112,46.1273,33.8,12,1,2.83,SA,1691971919
336,chernyshevskiy,63.0128,112.4714,14.34,95,100,3.08,RU,1691971919
337,acapulco de juarez,16.8634,-99.8901,31.9,70,75,4.63,MX,1691971919
338,port victoria,0.0939,33.9756,20.88,75,6,2.82,KE,1691971919
339,pathein,16.7833,94.7333,25.67,92,100,2.44,MM,1691971919
340,dakhla,23.6848,-15.958,20.76,93,13,4.6,EH,1691971920
341,itaituba,-4.2761,-55.9836,29.74,38,68,0.7,BR,1691971920
342,bonnyville,54.2668,-110.735,26.62,36,5,6.54,CA,1691971920
343,oodweyne,9.4092,45.064,24.45,44,39,4.54,SO,1691971921
344,princeville,45.7668,-61.2985,20.2,95,100,2.06,CA,1691971921
345,mokhsogollokh,61.4681,128.9203,13.69,94,100,2.77,RU,1691971921
346,greenville,35.6127,-77.3663,32.29,63,0,1.54,US,1691971868
347,filadelfia,39.9523,-75.1638,28.72,58,0,2.06,US,1691971691
348,yoichi,43.2039,140.7703,24.97,88,78,1.35,JP,1691971922
349,porto seguro,-16.4497,-39.0647,23.16,78,17,3.83,BR,1691971688
350,urk,52.6625,5.6014,16.08,91,86,6.88,NL,1691971923
351,moama,-36.1167,144.7833,9.99,72,6,3.33,AU,1691971923
352,coronel dorrego,-38.7187,-61.2873,16.64,31,50,7.57,AR,1691971923
353,san matias,-16.3667,-58.4,24.02,48,100,3.39,BO,1691971924
354,crateus,-5.1783,-40.6775,25.79,42,26,1.56,BR,1691971924
355,crane,31.3974,-102.3501,38.68,17,0,5.12,US,1691971924
356,vicosa,-20.7539,-42.8819,18.49,80,99,1.49,BR,1691971925
357,dolores,-36.3132,-57.6792,8.47,54,32,5.54,AR,1691971925
358,san pedro,14.35,121.0167,29.03,87,91,0.89,PH,1691971925
359,south boston,42.3334,-71.0495,26.06,71,0,2.57,US,1691971925
360,pesqueira,-8.3578,-36.6964,16.41,97,47,3.59,BR,1691971925
361,taradale,-39.5333,176.85,17.79,58,82,3.13,NZ,1691971865
362,rosales,15.8944,120.6328,27.52,80,98,0.93,PH,1691971926
363,sao paulo de olivenca,-3.3783,-68.8725,23.43,94,83,1.23,BR,1691971926
364,les cayes,18.2,-73.75,26.88,80,12,0.44,HT,1691971926
365,tuy hoa,13.0833,109.3,28.65,68,85,3.85,VN,1691971926
366,borogontsy,62.6683,131.1683,20.21,43,100,4.6,RU,1691971926
367,puerto colombia,10.9878,-74.9547,28.42,83,6,8.29,CO,1691971926
368,plouzane,48.3833,-4.6167,17.1,94,100,6.69,FR,1691971927
369,morondava,-20.2833,44.2833,21.99,68,83,4.1,MG,1691971927
370,weno,7.4515,151.8468,27.97,83,100,2.06,FM,1691971927
371,uzgen,40.7699,73.3007,19.16,41,33,3.25,KG,1691971927
372,callao,-12.0667,-77.15,22.62,68,0,4.63,PE,1691971927
373,nanao,37.05,136.9667,32.96,80,75,3.26,JP,1691971709
374,pundong,-7.9522,110.3486,22.92,84,27,2.41,ID,1691971927
375,crescent city,41.756,-124.2018,24.85,73,63,2.7,US,1691971928
376,tarawa,1.419,172.984,28.05,83,75,3.09,KI,1691971928
377,ilhabela,-23.7781,-45.3581,18.6,92,100,3.65,BR,1691971928
378,samus',56.7475,84.6992,11.67,93,99,0.73,RU,1691971928
379,saint-philippe,-21.3585,55.7679,20.77,84,40,5.6,RE,1691971633
380,katagum,12.2867,10.3527,25.35,75,62,2.46,NG,1691971928
381,chimbarongo,-34.7,-71.05,11.83,86,80,1.24,CL,1691971928
382,tete,-16.1564,33.5867,20.14,46,0,1.68,MZ,1691971929
383,krymsk,44.9293,37.9912,20.4,57,0,2.56,RU,1691971929
384,bozoum,6.3193,16.3799,19.71,97,96,1.12,CF,1691971929
385,tolanaro,-25.0319,46.9987,19.76,91,96,1.77,MG,1691971929
386,glace bay,46.1969,-59.957,20.5,82,100,2.24,CA,1691971929
387,kapuskasing,49.4169,-82.4331,17.06,65,71,2.49,CA,1691971742
388,akureyri,65.6835,-18.0878,7.96,81,0,2.57,IS,1691971929
389,balabac,7.9868,117.0645,28.1,76,100,1.64,PH,1691971929
390,mugia,43.1041,-9.2179,16.62,72,21,0.38,ES,1691971930
391,porto velho,-8.7619,-63.9039,20.94,97,100,1.45,BR,1691971850
392,impfondo,1.6381,18.0667,21.84,95,53,0.95,CG,1691971930
393,bubanza,-3.1167,29.4,21.86,60,9,1.22,BI,1691971930
394,kakata,6.53,-10.3517,24.49,97,99,0.95,LR,1691971930
395,kuta,-8.7233,115.1723,25.0,78,75,2.24,ID,1691971882
396,ivdel',60.6911,60.4206,15.47,70,93,1.74,RU,1691971930
397,federal,-30.9547,-58.7833,10.28,36,6,4.17,AR,1691971931
398,shevchenko,48.5,35.0,20.4,49,0,1.32,UA,1691971931
399,pacific grove,36.6177,-121.9166,26.25,86,20,3.09,US,1691971931
400,hami,42.8,93.45,25.49,28,0,3.14,CN,1691971931
401,necochea,-38.5473,-58.7368,12.56,46,69,10.1,AR,1691971931
402,alo,7.4178,6.7371,23.32,97,100,2.1,NG,1691971931
403,bel ombre,-4.6167,55.4167,25.91,78,40,7.72,SC,1691971931
404,paghman,34.5875,68.9533,14.97,34,0,1.39,AF,1691971931
405,okhotsk,59.3833,143.3,18.57,69,98,4.12,RU,1691971932
406,brejinho,-6.1908,-35.3567,21.68,84,39,6.61,BR,1691971932
407,belmonte,-15.8631,-38.8828,20.28,92,8,1.09,BR,1691971932
408,lazaro cardenas,17.9583,-102.2,29.99,77,6,2.48,MX,1691971889
409,hastings,50.8552,0.5729,17.73,44,100,4.23,GB,1691971750
410,kristiansund,63.1115,7.732,15.03,94,75,3.09,NO,1691971932
411,mogadishu,2.0371,45.3438,25.0,87,39,6.28,SO,1691971932
412,rio de janeiro,-22.9028,-43.2075,20.0,100,100,3.09,BR,1691971737
413,san jose de jachal,-30.2406,-68.7469,17.71,20,22,2.43,AR,1691971933
414,nacala,-14.5428,40.6728,19.59,97,8,1.36,MZ,1691971933
415,trincomalee,8.5711,81.2335,27.08,72,53,8.85,LK,1691971933
416,al kharijah,25.4514,30.5464,28.28,28,0,3.06,EG,1691971933
417,cidreira,-30.1811,-50.2056,8.38,83,6,0.97,BR,1691971933
418,shihezi,44.3,86.0333,19.3,49,94,1.97,CN,1691971933
419,arno,60.1167,18.6333,14.32,95,11,3.2,SE,1691971933
420,east ballina,-28.8667,153.5833,22.11,61,4,2.05,AU,1691971933
421,howrah,22.5892,88.3103,27.0,94,75,0.0,IN,1691971934
422,usogorsk,63.4106,48.6872,18.04,80,63,1.96,RU,1691971934
423,datia,25.6667,78.4667,25.06,81,100,2.65,IN,1691971934
424,colonia,50.9333,6.95,18.31,80,0,3.09,DE,1691971934
425,ambasa,23.9172,91.8472,24.3,99,100,1.2,IN,1691971934
426,khalkhal,37.6189,48.5258,14.68,58,0,3.38,IR,1691971934
427,yelizovo,53.1873,158.3805,18.95,68,20,2.0,RU,1691971934
428,vilyuysk,63.7553,121.6247,19.79,59,80,2.97,RU,1691971934
429,bastia,42.6667,9.3333,24.61,72,0,2.06,FR,1691971935
430,laguna,38.421,-121.4238,38.57,31,0,5.66,US,1691971935
431,kananga,-5.8958,22.4178,22.19,25,5,1.64,CD,1691971935
432,inari,68.906,27.0288,14.11,98,100,1.42,FI,1691971935
433,burang,30.25,81.1667,11.78,90,100,2.72,CN,1691971935
434,at taj,24.2049,23.2857,27.08,29,0,3.9,LY,1691971935
435,mata-utu,-13.2816,-176.1745,27.96,80,99,5.45,WF,1691971935
436,bodo,67.28,14.405,17.1,77,0,6.17,NO,1691971936
437,montmagny,48.9734,2.3469,19.43,76,0,2.06,FR,1691971875
438,imbituba,-28.24,-48.6703,11.04,76,1,0.94,BR,1691971936
439,kongolo,-5.3833,27.0,26.68,34,38,1.69,CD,1691971936
440,sidney,-33.8679,151.2073,15.18,90,75,4.12,AU,1691971688
441,armacao de buzios,-22.7469,-41.8817,20.64,92,100,1.41,BR,1691971936
442,tidjikja,18.5564,-11.4271,33.66,38,16,5.83,MR,1691971936
443,road town,18.4167,-64.6167,30.05,76,2,8.5,VG,1691971718
444,susuman,62.7833,148.1667,23.31,31,48,1.29,RU,1691971937
445,tagta,41.6504,59.9164,20.32,30,3,4.18,TM,1691971937
446,zakamensk,50.3741,103.2863,15.3,99,100,0.84,RU,1691971937
447,ndibene dahra,15.3338,-15.4766,25.5,88,91,2.64,SN,1691971937
448,nha trang,12.25,109.1833,29.0,61,3,0.67,VN,1691971937
449,prince george,53.9166,-122.753,31.25,32,75,6.69,CA,1691971657
450,pisco,-13.7,-76.2167,19.03,77,0,5.14,PE,1691971937
451,port douglas,-16.4833,145.4667,22.1,60,27,2.61,AU,1691971938
452,sitka,57.0531,-135.33,15.94,77,100,4.12,US,1691971938
453,port macquarie,-31.4333,152.9167,21.05,56,84,4.41,AU,1691971938
454,turpan,42.9333,89.1667,29.91,26,41,1.22,CN,1691971938
455,salinopolis,-0.6136,-47.3561,27.6,76,65,4.65,BR,1691971921
456,wenchang,30.904,118.4887,26.96,74,78,0.47,CN,1691971938
457,summerside,46.3959,-63.7876,19.7,92,91,5.39,CA,1691971629
458,namibe,-15.1961,12.1522,17.21,78,9,7.0,AO,1691971938
459,dadukou,26.5479,101.7054,22.44,89,25,0.52,CN,1691971939
460,veraval,20.9,70.3667,26.3,86,100,7.33,IN,1691971939
461,louga,58.7372,29.8453,14.3,98,51,2.39,RU,1691971939
462,ebon,4.582,168.6964,28.66,71,86,2.28,MH,1691971939
463,usinsk,65.9939,57.5281,17.02,93,98,2.53,RU,1691971939
464,thabazimbi,-24.5917,27.4116,16.97,32,1,1.75,ZA,1691971939
465,antsiranana,-12.2787,49.2917,22.44,83,1,5.78,MG,1691971939
466,sedalia,38.7045,-93.2283,26.84,88,75,1.54,US,1691971939
467,el alto,-4.2714,-81.2147,22.81,86,95,5.89,PE,1691971940
468,magadan,59.5667,150.8,23.63,45,6,1.23,RU,1691971940
469,oromocto,45.8351,-66.4792,19.96,93,100,3.09,CA,1691971940
470,sorong,-0.8833,131.25,26.88,78,100,5.37,ID,1691971940
471,ocean shores,46.9737,-124.1563,31.09,71,0,4.63,US,1691971701
472,al bardiyah,31.7561,25.0865,25.75,68,0,5.52,LY,1691971940
473,yanaul,56.2719,54.9309,15.94,65,9,0.13,RU,1691971940
474,ivanivka,46.7208,34.553,20.64,52,0,3.15,UA,1691971940
475,lata,40.1629,-8.3327,12.27,97,46,1.07,PT,1691971940
476,arica,-18.475,-70.3042,18.75,86,6,0.61,CL,1691971707
477,arkhangel'sk,64.5401,40.5433,16.09,97,43,2.06,RU,1691971941
478,valday,57.9747,33.2525,16.76,98,95,3.46,RU,1691971941
479,puerto baquerizo moreno,-0.9,-89.6,23.42,76,57,6.41,EC,1691971941
480,san ignacio,17.1561,-89.0714,29.41,64,98,3.69,BZ,1691971941
481,giado,31.9582,12.0203,20.65,56,0,2.52,LY,1691971942
482,polyarnyye zori,67.3661,32.4981,10.93,87,87,1.33,RU,1691971942
483,aripuana,-9.1667,-60.6333,22.45,91,98,1.67,BR,1691971942
484,andergrove,-21.0833,149.1833,24.8,60,12,0.62,AU,1691971942
485,ermenek,36.6404,32.8918,22.16,36,34,0.75,TR,1691971942
486,xinqing,48.2333,129.5,21.14,95,100,1.09,CN,1691971942
487,tual,-5.6667,132.75,25.6,78,80,9.76,ID,1691971943
488,touros,-5.1989,-35.4608,24.6,80,17,7.49,BR,1691971943
489,gamboma,-1.8764,15.8644,25.29,68,28,2.09,CG,1691971943
490,oslo,59.9127,10.7461,16.5,96,100,3.16,NO,1691971943
491,revelstoke,50.9832,-118.2023,32.07,31,15,0.27,CA,1691971822
492,vylkove,45.4021,29.586,19.71,66,0,2.27,UA,1691971944
493,mo i rana,66.3128,14.1428,15.18,89,100,1.03,NO,1691971944
494,bontang,0.1333,117.5,26.01,80,100,3.54,ID,1691971684
495,port hedland,-20.3167,118.5667,18.03,68,83,2.06,AU,1691971944
496,naze,28.3667,129.4833,26.63,76,6,2.88,JP,1691971944
497,zhangjiakou,40.81,114.8794,23.95,51,84,0.85,CN,1691971920
498,pishin,30.5803,66.9961,22.4,19,1,1.95,PK,1691971945
499,zaysan,47.4667,84.8667,9.81,90,64,3.17,KZ,1691971945
500,kupang,-10.1667,123.5833,25.94,69,7,3.56,ID,1691971689
501,tucuma,-0.1833,-50.05,25.28,86,100,4.85,BR,1691971946
502,puerto aysen,-45.4,-72.7,6.63,100,100,3.04,CL,1691971946
503,usuki,33.1081,131.7878,27.96,73,0,2.25,JP,1691971946
504,micheweni,-4.9667,39.8333,24.4,86,6,5.79,TZ,1691971946
505,barra de santo antonio,-9.4047,-35.5072,23.04,77,29,3.73,BR,1691971709
506,miri,4.4148,114.0089,26.84,78,74,1.4,MY,1691971947
507,dynow,49.8151,22.2339,18.71,70,7,2.54,PL,1691971947
508,labrador city,52.9463,-66.9114,15.95,72,75,2.06,CA,1691971947
509,purificacion,3.8587,-74.9313,31.46,36,100,5.28,CO,1691971949
510,bonthe,7.5264,-12.505,25.26,84,98,4.05,SL,1691971949
511,palikir - national government center,6.9248,158.1611,30.47,70,100,4.12,FM,1691971870
512,najran,17.4924,44.1277,28.29,39,36,2.24,SA,1691971949
513,astara,38.5,48.6667,23.0,39,0,1.61,AZ,1691971950
514,tambura,5.6,27.4667,19.63,95,9,1.24,SS,1691971950
515,solleftea,63.1667,17.2667,12.92,98,88,0.91,SE,1691971952
516,kinablangan,7.6947,126.5503,26.9,79,100,1.15,PH,1691971953
517,arteche,12.2645,125.4048,28.48,73,99,3.2,PH,1691971953
518,kaoma,-14.7833,24.8,13.12,42,2,2.96,ZM,1691971953
519,kidal,18.4411,1.4078,29.54,46,100,6.02,ML,1691971756
520,sao vicente,-23.9631,-46.3919,18.1,26,100,3.42,BR,1691971876
521,ugoofaaru,5.6667,73.0,28.09,69,22,6.37,MV,1691971957
522,swainsboro,32.5974,-82.3337,32.03,70,0,0.0,US,1691971958
523,maragogi,-9.0122,-35.2225,22.84,78,40,3.44,BR,1691971686
524,borzya,50.3833,116.5167,20.45,64,5,1.53,RU,1691971960
525,eastham,41.8301,-69.9739,24.98,81,45,2.68,US,1691971766
526,inhambane,-23.865,35.3833,15.99,88,0,1.74,MZ,1691971961
527,san andres,12.5847,-81.7006,30.01,74,20,5.66,CO,1691971961
528,cururupu,-1.8283,-44.8683,23.12,93,51,1.17,BR,1691971900
529,chipinge,-20.1883,32.6236,12.81,41,0,1.91,ZW,1691971962
530,thunder bay,48.4001,-89.3168,19.99,52,75,2.06,CA,1691971962
531,berani,25.785,68.8069,27.4,75,36,8.37,PK,1691971962
532,saint-pierre,-21.3393,55.4781,20.82,78,0,2.57,RE,1691971962
533,sooke,48.3746,-123.7276,33.27,55,2,3.09,CA,1691971962
534,waldbrol,50.8833,7.6167,17.75,96,12,0.19,DE,1691971962
535,luderitz,-26.6481,15.1594,13.03,73,0,2.73,NA,1691971962
536,kadoma,34.7333,135.5833,29.77,54,86,4.48,JP,1691971963
537,patong,7.8961,98.2966,28.34,80,93,9.06,TH,1691971870
538,savanna-la-mar,18.219,-78.1332,28.97,81,28,2.83,JM,1691971963
539,korla,41.7597,86.1469,23.28,49,37,3.08,CN,1691971963
540,nikol'sk,53.7189,46.0712,21.54,43,100,1.82,RU,1691971963
541,celestun,20.8667,-90.4,28.42,72,99,4.44,MX,1691971963
542,trinidad,-14.8333,-64.9,19.38,66,100,2.17,BO,1691971476
543,fray luis beltran,-39.3167,-65.7667,17.72,39,84,4.13,AR,1691971964
544,christchurch,-43.5333,172.6333,14.62,66,25,1.54,NZ,1691971867
545,sirajganj,24.45,89.7167,26.19,91,100,2.86,BD,1691971964
546,maitum,6.0392,124.4986,28.85,67,89,0.9,PH,1691971964
547,songjianghe,42.1859,127.479,19.09,98,100,1.19,CN,1691971964
548,lake monticello,37.9232,-78.3347,30.81,77,52,0.91,US,1691971964
549,la rioja,42.25,-2.5,16.88,91,24,0.9,ES,1691971736
550,koraput,18.8167,82.7167,20.96,89,100,1.11,IN,1691971964
551,malango,-2.9627,119.9001,21.39,85,70,0.72,ID,1691971965
552,choele choel,-39.2667,-65.6833,17.31,39,81,3.47,AR,1691971965
553,ryotsu-minato,38.0833,138.4333,29.5,71,78,2.66,JP,1691971965
554,suva,-18.1416,178.4415,25.71,73,75,4.12,FJ,1691971965
555,xining,36.6167,101.7667,17.53,50,90,0.58,CN,1691971965
556,san juan,-31.5375,-68.5364,18.31,20,68,1.15,AR,1691971686
557,lagoa,39.05,-27.9833,22.6,75,57,2.79,PT,1691971965
558,wenling,28.3669,121.36,28.9,80,29,1.01,CN,1691971965
559,papao,-17.75,-149.55,27.82,69,89,4.41,PF,1691971966
